[
    {
        "pk": 3,
        "model": "retail.partner",
        "fields": {
            "website": "http://wheelworks.reachlocal.com/?scid=1895137&kw=12962415&pub_cr_id=5645502827",
            "offer": "10% off all safety equipment, including helmets, lights, flags and reflective gear!",
            "phone": "6177762100",
            "street": "145 Elm Street",
            "contact_email": "support@wheelworks.com",
            "contact_name": "Jason Paige",
            "approved": true,
            "category": "Bikes",
            "city": "Somerville",
            "name": "Ace Wheelworks",
            "notes": "Contact title: Owner\n",
            "zipcode": "02144",
            "longitude": -71.118658,
            "latitude": 42.3913436,
            "contact_phone": ""
        }
    },
    {
        "pk": 4,
        "model": "retail.partner",
        "fields": {
            "website": "",
            "offer": "10% off any item",
            "phone": "7813060643",
            "street": "43 Salem Street",
            "contact_email": "",
            "contact_name": "",
            "approved": true,
            "category": "Clothing and Equipment",
            "city": "Medford",
            "name": "Aggie's Attic Consignment Boutique",
            "notes": "Notes: called 7/16, no answer",
            "zipcode": "02155",
            "longitude": -71.1081317,
            "latitude": 42.4183888,
            "contact_phone": ""
        }
    },
    {
        "pk": 5,
        "model": "retail.partner",
        "fields": {
            "website": "http://www.aguacateverderestaurant.com/",
            "offer": "10% off any vegetarian dishes!",
            "phone": "6176660677",
            "street": "13 Somerville Avenue",
            "contact_email": "asda27@comcast.net",
            "contact_name": "Silvia De La Sota",
            "approved": true,
            "category": "Food and Drink",
            "city": "Somerville",
            "name": "Aguacate Verde Restaurant",
            "notes": "Contact title: Owner\nNotes: called 7/16, no answer",
            "zipcode": "02143",
            "longitude": -71.1024254,
            "latitude": 42.3821249,
            "contact_phone": "6176660677"
        }
    },
    {
        "pk": 6,
        "model": "retail.partner",
        "fields": {
            "website": "http://www.artistcraftsman.com",
            "offer": "10% to participating customers who take part in Walk/Ride Day.",
            "phone": "6173543636",
            "street": "580 Massachusetts Ave.",
            "contact_email": "steve@artistcraftsman.com",
            "contact_name": "Steve Kenney - maine office / cam@artistcraftsman.com christina manager",
            "approved": true,
            "category": "Art",
            "city": "Cambridge",
            "name": "Artist & Craftsman Supply",
            "notes": "Last contact: 7/16/2014\nNotes: sent new decals, flyers 8/14",
            "zipcode": "02139",
            "longitude": -71.1029059,
            "latitude": 42.3647114,
            "contact_phone": "6173543636"
        }
    },
    {
        "pk": 7,
        "model": "retail.partner",
        "fields": {
            "website": "http://www.artsatthearmory.org/",
            "offer": "10% discount on Walk/Ride Day on all food and non-alcoholic beverages from 8am to 6pm on Walk/Ride Day.",
            "phone": "6177182192",
            "street": "191 Highland Avenue Suite 1A",
            "contact_email": "info@artsatthearmory.org",
            "contact_name": "Lea Ruscio",
            "approved": true,
            "category": "Food and Drink",
            "city": "Somerville",
            "name": "Arts At The Armory Cafe",
            "notes": "Contact title: Manager\nLast contact: 7/16/2014\nNotes: one they got is too big for near cash register and wouldnt do anything in window b/c is so far set back. need something smaller to put near register (even just a logo or wallet card) business card size flyer sent 8/14",
            "zipcode": "02143",
            "longitude": -71.1060716,
            "latitude": 42.3895215,
            "contact_phone": "6177182191"
        }
    },
    {
        "pk": 8,
        "model": "retail.partner",
        "fields": {
            "website": "https://www.facebook.com/atomicbeancafe",
            "offer": "10% off on all purchases",
            "phone": "6174990972",
            "street": "904 Massachusetts Avenue",
            "contact_email": "atomicbeancafe@yahoo.com",
            "contact_name": "David Fieldhouse",
            "approved": true,
            "category": "Food and Drink",
            "city": "Cambridge",
            "name": "Atomic Bean Cafe",
            "notes": "Notes: called 7/16, fax line noises",
            "zipcode": "02139",
            "longitude": -71.1086583,
            "latitude": 42.3680941,
            "contact_phone": ""
        }
    },
    {
        "pk": 9,
        "model": "retail.partner",
        "fields": {
            "website": "http://www.awakenedwarrioryoga.com",
            "offer": "Free yoga class every last Friday of the month for Walkers and Riders.",
            "phone": "7813504299",
            "street": "45 Riverside Avenue",
            "contact_email": "",
            "contact_name": "Ms Emilie",
            "approved": true,
            "category": "Mind and Body",
            "city": "Medford",
            "name": "Awakened Warrior Yoga",
            "notes": "Notes: 0",
            "zipcode": "02155",
            "longitude": -71.1073209,
            "latitude": 42.4175106,
            "contact_phone": ""
        }
    },
    {
        "pk": 10,
        "model": "retail.partner",
        "fields": {
            "website": "http://backbaybicycles.com/",
            "offer": "20% on all accessories",
            "phone": "6172472336",
            "street": "362 Commonwealth Ave",
            "contact_email": "dave@backbaybicycles.com",
            "contact_name": "Dave",
            "approved": true,
            "category": "Bikes",
            "city": "Boston",
            "name": "Back Bay Bicycles",
            "notes": "",
            "zipcode": "02115",
            "longitude": -71.0880491,
            "latitude": 42.3488218,
            "contact_phone": ""
        }
    },
    {
        "pk": 11,
        "model": "retail.partner",
        "fields": {
            "website": "http://www.cambridgebicycleexchange.com/",
            "offer": "10% off all accessories",
            "phone": "6178641300",
            "street": "2067 Massachusetts Avenue",
            "contact_email": "biex37@aol.com",
            "contact_name": "Dick Powers",
            "approved": true,
            "category": "Bikes",
            "city": "Cambridge",
            "name": "Bicycle Exchange at Porter Square",
            "notes": "Contact title: Owner\n",
            "zipcode": "02140",
            "longitude": -71.1232676,
            "latitude": 42.3916007,
            "contact_phone": ""
        }
    },
    {
        "pk": 12,
        "model": "retail.partner",
        "fields": {
            "website": "http://bostoncommoncoffee.com",
            "offer": "30% off order",
            "phone": "6175420595",
            "street": "515 Washington St",
            "contact_email": "marionjeanninejackson@gmail.com",
            "contact_name": "Marion Jackson",
            "approved": true,
            "category": "Food and Drink",
            "city": "Boston",
            "name": "Boston Common Coffee Company",
            "notes": "Last contact: 7/13/2014\nNotes: Have decal & flyer in window",
            "zipcode": "02111",
            "longitude": -71.0620538,
            "latitude": 42.354316,
            "contact_phone": "6175420595"
        }
    },
    {
        "pk": 13,
        "model": "retail.partner",
        "fields": {
            "website": "http://www.mysportsclubs.com/",
            "offer": "For Walk/Ride Day participants who are not BSC members: a free one week pass, and a chance to win a 30 day pass. For Walk/Ride Day participants who are BSC members: a free PT Evaluation (blood pressure and body fat analyses, $79 value)",
            "phone": "6174283622",
            "street": "695 Atlantic Ave",
            "contact_email": "",
            "contact_name": "Only corporate contacts listed none for South Station",
            "approved": true,
            "category": "Mind and Body",
            "city": "Boston",
            "name": "Boston Sports Club - South Station",
            "notes": "",
            "zipcode": "02111",
            "longitude": -71.056388,
            "latitude": 42.3516,
            "contact_phone": ""
        }
    },
    {
        "pk": 14,
        "model": "retail.partner",
        "fields": {
            "website": "http://www.newbuccisdeli.com/",
            "offer": "Raffle for a free lunch for Walk/Ride Day participants.",
            "phone": "8573632640",
            "street": "100 Summer St.",
            "contact_email": "",
            "contact_name": "Joseph Bucchiere, and his nephew, Carmine DiBattista. Owners & operators no email address on web",
            "approved": true,
            "category": "Food and Drink",
            "city": "Everett",
            "name": "Bucci's Deli and Pizzeria",
            "notes": "",
            "zipcode": "02149",
            "longitude": -71.0495442,
            "latitude": 42.4082783,
            "contact_phone": ""
        }
    },
    {
        "pk": 15,
        "model": "retail.partner",
        "fields": {
            "website": "http://www.portersquarebooks.com/cafe-zing",
            "offer": "10% Discount",
            "phone": "6174979464",
            "street": "25 White Street",
            "contact_email": "mark@ostow.com, cafezing@yahoo.com",
            "contact_name": "Mark Ostow",
            "approved": true,
            "category": "Food and Drink",
            "city": "Cambridge",
            "name": "Cafe Zing! at Porter Square Books",
            "notes": "Contact title: Owner\nNotes: have decal in window",
            "zipcode": "02140",
            "longitude": -71.1180656,
            "latitude": 42.3891025,
            "contact_phone": "6175044075"
        }
    },
    {
        "pk": 16,
        "model": "retail.partner",
        "fields": {
            "website": "http://CentreSkiAndBike.com",
            "offer": "15% off Bike Tune-Up or Bike Accessory",
            "phone": "6173320300",
            "street": "1239 Washington Street",
            "contact_email": "Centreski@aol.com",
            "contact_name": "Peter Lieberman",
            "approved": true,
            "category": "Bikes",
            "city": "Newton",
            "name": "Centre Ski and Bike",
            "notes": "",
            "zipcode": "02465",
            "longitude": -71.224685,
            "latitude": 42.3494563,
            "contact_phone": "6173320300"
        }
    },
    {
        "pk": 17,
        "model": "retail.partner",
        "fields": {
            "website": "http://www.centurybank.com",
            "offer": "$50.00 for opening a personal checking account.",
            "phone": "7813919830",
            "street": "1 Salem Street                   United States",
            "contact_email": "wkeefe@centurybank.com",
            "contact_name": "William Keefe",
            "approved": true,
            "category": "Other",
            "city": "Medford",
            "name": "Century Bank, Medford",
            "notes": "Contact title: Asst. VP, Manager\n",
            "zipcode": "02155",
            "longitude": -71.1096603,
            "latitude": 42.4182721,
            "contact_phone": ""
        }
    },
    {
        "pk": 18,
        "model": "retail.partner",
        "fields": {
            "website": "",
            "offer": "Free raffle entry for a gift card (with your purchase).",
            "phone": "7813959575",
            "street": "61 High St",
            "contact_email": "colleensmedford@gmail.com",
            "contact_name": "Colleen Hallisey",
            "approved": true,
            "category": "Food and Drink",
            "city": "Medford",
            "name": "Colleen's Ice Cream and Sandwich Shop",
            "notes": "",
            "zipcode": "02155",
            "longitude": -71.1115934,
            "latitude": 42.418716,
            "contact_phone": ""
        }
    },
    {
        "pk": 19,
        "model": "retail.partner",
        "fields": {
            "website": "http://www.coolidge.org/",
            "offer": "Free small popcorn with purchase of movie ticket on Walk/Ride Day! Please bring QR code receipt of check-in to redeem.",
            "phone": "6177342500",
            "street": "290 Harvard Street",
            "contact_email": "lisa@coolidge.org",
            "contact_name": "Lisa",
            "approved": true,
            "category": "Other",
            "city": "Brookline",
            "name": "Coolidge Corner Theatre",
            "notes": "",
            "zipcode": "02446",
            "longitude": -71.1224629,
            "latitude": 42.3425882,
            "contact_phone": ""
        }
    },
    {
        "pk": 20,
        "model": "retail.partner",
        "fields": {
            "website": "http://www.countrysidepaintingcompany.com/",
            "offer": "5% off any project, and 10% off projects when the customer uses planet friendly ECO SPEC paint. Participation in six full-fleged Walk/Ride Days is required in order to redeem the discount.",
            "phone": "6176294820",
            "street": "57 Cherry Street",
            "contact_email": "john@countrysidepaintingcompany.com",
            "contact_name": "John Kearns",
            "approved": true,
            "category": "Art",
            "city": "Somerville",
            "name": "Countryside Painting",
            "notes": "",
            "zipcode": "02144",
            "longitude": -71.114266,
            "latitude": 42.392136,
            "contact_phone": "6176294820"
        }
    },
    {
        "pk": 21,
        "model": "retail.partner",
        "fields": {
            "website": "http://www.medfordsquareflorist.com/",
            "offer": "10% off floral purchase of $20 or more, carry-out sale only",
            "phone": "7813961900",
            "street": "76 High Street",
            "contact_email": "can email through website",
            "contact_name": "",
            "approved": true,
            "category": "Gifts",
            "city": "Medford",
            "name": "D'Errico-McGlynn Flowers",
            "notes": "Last contact: 6/14/2014\nNotes: Trish visited and he said continue",
            "zipcode": "02155",
            "longitude": -71.1116052,
            "latitude": 42.4186901,
            "contact_phone": ""
        }
    },
    {
        "pk": 22,
        "model": "retail.partner",
        "fields": {
            "website": "http://dahliahandmade.com",
            "offer": "10% off anything in the store on Walk/Ride Day Fridays until the following Friday.",
            "phone": "6175274456",
            "street": "97M Union Street",
            "contact_email": "dahlia-handwoven@earthlink.net",
            "contact_name": "Dahlia Popovits",
            "approved": true,
            "category": "Clothing and Equipment",
            "city": "Newton Centre",
            "name": "Dahlia's",
            "notes": "",
            "zipcode": "02459",
            "longitude": -71.1933833,
            "latitude": 42.3294906,
            "contact_phone": ""
        }
    },
    {
        "pk": 23,
        "model": "retail.partner",
        "fields": {
            "website": "http://www.davesfreshpasta.com/",
            "offer": "10% discount on Walk/Ride Day. Can't be combined with any other discount. Not valid on alcohol.",
            "phone": "6176230867",
            "street": "81 Holland St",
            "contact_email": "info@davesfreshpasta.com",
            "contact_name": "Dave",
            "approved": true,
            "category": "Food and Drink",
            "city": "Somerville",
            "name": "Dave's Fresh Pasta",
            "notes": "Last contact: 2/14\nNotes: Continue, Elliya dropped off decal",
            "zipcode": "02144",
            "longitude": -71.1240966,
            "latitude": 42.3988141,
            "contact_phone": ""
        }
    },
    {
        "pk": 24,
        "model": "retail.partner",
        "fields": {
            "website": "http://davissquared.com/",
            "offer": "Davis Squared offers 10% off its merchandise when you commute car-free on Walk/Ride Day.",
            "phone": "6176666700",
            "street": "409 Highland Ave.",
            "contact_email": "info@davissquared.com",
            "contact_name": "Christie & Paul",
            "approved": true,
            "category": "Gifts",
            "city": "Somerville",
            "name": "Davis Squared",
            "notes": "",
            "zipcode": "02144",
            "longitude": -71.1214492,
            "latitude": 42.3959674,
            "contact_phone": ""
        }
    },
    {
        "pk": 25,
        "model": "retail.partner",
        "fields": {
            "website": "http://www.grubhub.com/boston/depot-square-grill/",
            "offer": "Free cup of clam chowder",
            "phone": "7813917130",
            "street": "478 High Street",
            "contact_email": "",
            "contact_name": "",
            "approved": true,
            "category": "Food and Drink",
            "city": "Medford",
            "name": "Depot Square Grille",
            "notes": "Last contact: 6/14/2014\nNotes: Trish visited and she said continue",
            "zipcode": "02155",
            "longitude": -71.1322237,
            "latitude": 42.4210247,
            "contact_phone": ""
        }
    },
    {
        "pk": 26,
        "model": "retail.partner",
        "fields": {
            "website": "http://www.diesel-cafe.com/",
            "offer": "Free small hot or iced coffee with any other purchase",
            "phone": "6176298717",
            "street": "257 Elm Street",
            "contact_email": "reebs.diesel@gmail.com",
            "contact_name": "Rebecca Mitchell",
            "approved": true,
            "category": "Food and Drink",
            "city": "Somerville",
            "name": "Diesel Cafe",
            "notes": "Contact title: Administrative Assistant\nLast contact: 7/30/2014\nNotes: New 7/24 added to web",
            "zipcode": "02144",
            "longitude": -71.121737,
            "latitude": 42.395176,
            "contact_phone": "8572031332"
        }
    },
    {
        "pk": 27,
        "model": "retail.partner",
        "fields": {
            "website": "http://www.downtownwineandspirits.com/",
            "offer": "Half-price Bicycle Benefits stickers on Walk/Ride Day! With a sticker, free pint glass with purchase of a six-pack on Walk/Ride Day!",
            "phone": "6176257777",
            "street": "225 Elm Street",
            "contact_email": "downtownstevemc@gmail.com",
            "contact_name": "Steve McCloud",
            "approved": true,
            "category": "Food and Drink",
            "city": "Somerville",
            "name": "Downtown Wine and Spirits",
            "notes": "Last contact: 7/28 or 7/29/14\nNotes: Janie spoke with Steve and followed up by email. They will confirm their offer",
            "zipcode": "02144",
            "longitude": -71.1213674,
            "latitude": 42.3946226,
            "contact_phone": "7813166846"
        }
    },
    {
        "pk": 28,
        "model": "retail.partner",
        "fields": {
            "website": "",
            "offer": "15% off on all purchases - Plus, a little known secret... visit EMS ANY day and receive a 15% discount when you mention that you participated on the previous Walk/Ride Day.",
            "phone": "",
            "street": "1 Brattle Square",
            "contact_email": "e0154st@ems.com",
            "contact_name": "Chris Murphy",
            "approved": true,
            "category": "Clothing and Equipment",
            "city": "Cambridge",
            "name": "Eastern Mountain Sports",
            "notes": "",
            "zipcode": "02139",
            "longitude": -71.1213067,
            "latitude": 42.3732779,
            "contact_phone": ""
        }
    },
    {
        "pk": 29,
        "model": "retail.partner",
        "fields": {
            "website": "http://www.ems.com/",
            "offer": "15% off on all full price purchases for Walk/Ride Day participants on Walk/Ride Day and throughout the month, at EMS's original store! And stop by the store on Club Days with 20% off everything in the store for Walk/Ride Day participants, coordinators, maybe even future participants! \\r\\n\\r\\nBring in a print-out of this listing for your discount!",
            "phone": "6172544250",
            "street": "1041 Commonwealth Avenue",
            "contact_email": "e0001mg@ems.com",
            "contact_name": "***Chris Murphy - doesnt work there anymore",
            "approved": true,
            "category": "Clothing and Equipment",
            "city": "Boston",
            "name": "Eastern Mountain Sports",
            "notes": "",
            "zipcode": "02215",
            "longitude": -71.1223634,
            "latitude": 42.3522569,
            "contact_phone": ""
        }
    },
    {
        "pk": 30,
        "model": "retail.partner",
        "fields": {
            "website": "http://www.eatatjumbos.com/",
            "offer": "10% discount on Walk/Ride Day. Can't be combined with any other discount.",
            "phone": "6176665862",
            "street": "688 Broadway                   Ball Square",
            "contact_email": "info@eatatjumbos.com",
            "contact_name": "",
            "approved": true,
            "category": "Food and Drink",
            "city": "Somerville",
            "name": "Eat at Jumbo's",
            "notes": "",
            "zipcode": "02144",
            "longitude": -71.1133538,
            "latitude": 42.4004472,
            "contact_phone": ""
        }
    },
    {
        "pk": 31,
        "model": "retail.partner",
        "fields": {
            "website": "http://www.boston-acupuncture.com",
            "offer": "$25 off acupuncture treatment on Walk/Ride Days",
            "phone": "6179221881",
            "street": "45 Newbury Street, Suite 208",
            "contact_email": "elementacupunctureboston@gmail.com",
            "contact_name": "William Wessel ",
            "approved": true,
            "category": "Mind and Body",
            "city": "Boston",
            "name": "ELEMENT Acupuncture and Wellness",
            "notes": "Last contact: 3/14\nNotes: Continue",
            "zipcode": "02116",
            "longitude": -71.0733905,
            "latitude": 42.3522368,
            "contact_phone": "6179221881"
        }
    },
    {
        "pk": 32,
        "model": "retail.partner",
        "fields": {
            "website": "http://www.elementsmassage.com/newton",
            "offer": "$15 off an upgrade to an 80-Minute or Hot Stone massage",
            "phone": "6174676072",
            "street": "1290 Washington Street",
            "contact_email": "Can email through web site",
            "contact_name": "Isabelle Wiryo",
            "approved": true,
            "category": "Mind and Body",
            "city": "Newton",
            "name": "Elements Therapeutic Massage",
            "notes": "Contact title: Owner\n",
            "zipcode": "02465",
            "longitude": -71.2264029,
            "latitude": 42.3492527,
            "contact_phone": ""
        }
    },
    {
        "pk": 33,
        "model": "retail.partner",
        "fields": {
            "website": "http://www.evolvefitnessinc.com",
            "offer": "7 Day Full Access Membership Trial",
            "phone": "6173541000",
            "street": "53 New Street",
            "contact_email": "ben.weinstein@evolvefitnessinc.com",
            "contact_name": "Ben Weinstein",
            "approved": true,
            "category": "Mind and Body",
            "city": "Cambridge",
            "name": "Evolve Fitness",
            "notes": "Last contact: 6/14/2014\nNotes: Signed up on web",
            "zipcode": "02138",
            "longitude": -71.1405055,
            "latitude": 42.3884113,
            "contact_phone": ""
        }
    },
    {
        "pk": 34,
        "model": "retail.partner",
        "fields": {
            "website": "http://www.ferriswheelsbikeshop.com/",
            "offer": "Free Pancake breakfast for bike commuters, 7-9am on Walk/Ride Days!",
            "phone": "6175242453",
            "street": "66 South Street,                   Jamaica Plain",
            "contact_email": "office@ferriswheelsbikeshop.com",
            "contact_name": "Ren Pilinger ",
            "approved": true,
            "category": "Bikes",
            "city": "Boston",
            "name": "Ferris Wheels Bike Shop",
            "notes": "Last contact: 2/14\nNotes: Continue",
            "zipcode": "02130",
            "longitude": -71.1152577,
            "latitude": 42.3075027,
            "contact_phone": "6179832679"
        }
    },
    {
        "pk": 35,
        "model": "retail.partner",
        "fields": {
            "website": "http://ftmedford.com",
            "offer": "One free fitness evaluation, one free training session.",
            "phone": "7813953600",
            "street": "365 Salem Street",
            "contact_email": "Can email through site",
            "contact_name": "Peter M. Petrella; D. Donna Petrella",
            "approved": true,
            "category": "Mind and Body",
            "city": "Medford",
            "name": "Fitness Together Medford",
            "notes": "Contact title: Owners\n",
            "zipcode": "02155",
            "longitude": -71.0949787,
            "latitude": 42.4219423,
            "contact_phone": ""
        }
    },
    {
        "pk": 36,
        "model": "retail.partner",
        "fields": {
            "website": "http://shopfolklorica.com",
            "offer": "10% off any item!",
            "phone": "6176301815",
            "street": "61 Union St",
            "contact_email": "aileen@shopfolklorica.com",
            "contact_name": "Aileen",
            "approved": true,
            "category": "Clothing and Equipment",
            "city": "Newton Centre",
            "name": "Folklorica",
            "notes": "",
            "zipcode": "02459",
            "longitude": -71.1924768,
            "latitude": 42.3296969,
            "contact_phone": ""
        }
    },
    {
        "pk": 37,
        "model": "retail.partner",
        "fields": {
            "website": "http://www.greenplanetkids.com",
            "offer": "Free flashing LED bike light for all kids (under 18) who ride to the store. Show your helmet to get your light!  Offer good on Walk/Ride Day until supply runs out.",
            "phone": "6173327841",
            "street": "22 Lincoln Street",
            "contact_email": "annabelleship@gmail.com",
            "contact_name": "Annabelle Ship",
            "approved": true,
            "category": "Bikes",
            "city": "Newton Highlands",
            "name": "Green Planet Kids",
            "notes": "",
            "zipcode": "02461",
            "longitude": -71.2068297,
            "latitude": 42.3215927,
            "contact_phone": "6173327841"
        }
    },
    {
        "pk": 38,
        "model": "retail.partner",
        "fields": {
            "website": "http://www.hrblock.com",
            "offer": "free water bottles to everyone who comes in all year long!",
            "phone": "6178683174",
            "street": "674 Massachusetts Avenue",
            "contact_email": "laura.potter@tax.hrblock.com",
            "contact_name": "laura potter",
            "approved": true,
            "category": "Other",
            "city": "Cambridge",
            "name": "H&R Block",
            "notes": "",
            "zipcode": "02139",
            "longitude": -71.104467,
            "latitude": 42.3655468,
            "contact_phone": "6178681374"
        }
    },
    {
        "pk": 39,
        "model": "retail.partner",
        "fields": {
            "website": "http://hairskaren.com",
            "offer": "20% off all products and 10% off all services",
            "phone": "7813958423",
            "street": "438 High Street",
            "contact_email": "",
            "contact_name": "",
            "approved": true,
            "category": "Mind and Body",
            "city": "Medford",
            "name": "Hair's Karen",
            "notes": "",
            "zipcode": "02155",
            "longitude": -71.1310977,
            "latitude": 42.4209541,
            "contact_phone": ""
        }
    },
    {
        "pk": 40,
        "model": "retail.partner",
        "fields": {
            "website": "http://www.haleyhouse.org/cafe",
            "offer": "Free cookie with any sandwich order.",
            "phone": "6174450900",
            "street": "12 Dade Street                    , Roxbury",
            "contact_email": "bbroderick@haleyhouse.org",
            "contact_name": "Bing Broderick",
            "approved": true,
            "category": "Food and Drink",
            "city": "Boston",
            "name": "Haley House Bakery Cafe",
            "notes": "",
            "zipcode": "02119",
            "longitude": -71.0820105,
            "latitude": 42.3317938,
            "contact_phone": "6174450900"
        }
    },
    {
        "pk": 41,
        "model": "retail.partner",
        "fields": {
            "website": "http://www.harriscyclery.net",
            "offer": "10% off all accessories",
            "phone": "6172441040",
            "street": "1353 Washington Street",
            "contact_email": "jon@harriscyclery.net",
            "contact_name": "Jon",
            "approved": true,
            "category": "Bikes",
            "city": "W. Newton",
            "name": "Harris Cyclery",
            "notes": "",
            "zipcode": "02465",
            "longitude": -71.228593,
            "latitude": 42.3488648,
            "contact_phone": ""
        }
    },
    {
        "pk": 42,
        "model": "retail.partner",
        "fields": {
            "website": "http://www.harvest.coop",
            "offer": "Enter a raffle for a $15 gift certificate",
            "phone": "6176611580",
            "street": "581 Massachusetts Avenue",
            "contact_email": "cdurkin@harvest.coop",
            "contact_name": "Chris Durkin",
            "approved": true,
            "category": "Food and Drink",
            "city": "Cambridge",
            "name": "Harvest Co-op Market",
            "notes": "Last contact: 1/23\nNotes: Continue, flyers sent",
            "zipcode": "02139",
            "longitude": -71.1026491,
            "latitude": 42.3649882,
            "contact_phone": "6176611580132"
        }
    },
    {
        "pk": 43,
        "model": "retail.partner",
        "fields": {
            "website": "http://www.henrybear.com/",
            "offer": "Stop in for your chance to win a fun activity kit! And be to sure to enter our drawing for a $15 Charley Card. Winner will be picked toward the end of the summer, after August's Walk/Ride Day.",
            "phone": "6175478424",
            "street": "17 White Street,                   Porter Square Shopping Center",
            "contact_email": "sally@henrybear.com",
            "contact_name": "Kas - sally doesnt work there anymore",
            "approved": true,
            "category": "Other",
            "city": "Cambridge",
            "name": "Henry Bear's Park",
            "notes": "",
            "zipcode": "02140",
            "longitude": -71.1190552,
            "latitude": 42.3896587,
            "contact_phone": ""
        }
    },
    {
        "pk": 44,
        "model": "retail.partner",
        "fields": {
            "website": "https://www.facebook.com/HighEnergyVintage",
            "offer": "All records: buy 1 get 1 free on Walk Ride Days!",
            "phone": "6176280504",
            "street": "1242 Broadway",
            "contact_email": "highenergyvintage@gmail.com",
            "contact_name": "Wiley",
            "approved": true,
            "category": "Art",
            "city": "Somerville",
            "name": "High Energy Vintage",
            "notes": "",
            "zipcode": "02144",
            "longitude": -71.129735,
            "latitude": 42.4046678,
            "contact_phone": "6037240037"
        }
    },
    {
        "pk": 45,
        "model": "retail.partner",
        "fields": {
            "website": "http://www.hipstitchers.com/",
            "offer": "10 % off classes",
            "phone": "6179650880",
            "street": "15 Spencer Street                   HipStitch",
            "contact_email": "hipstitch@gmail.com",
            "contact_name": "Nicola",
            "approved": true,
            "category": "Art",
            "city": "West Newton",
            "name": "HipStitch",
            "notes": "",
            "zipcode": "02465",
            "longitude": -71.2055777,
            "latitude": 42.3508444,
            "contact_phone": ""
        }
    },
    {
        "pk": 46,
        "model": "retail.partner",
        "fields": {
            "website": "",
            "offer": "Free small coffee with purchase of a bakery item at our coffee bar.",
            "phone": "6175369455",
            "street": "19 Stuart Street",
            "contact_email": "kelly.smith@hiusa.org",
            "contact_name": "Kelly Smith",
            "approved": true,
            "category": "Food and Drink",
            "city": "Boston",
            "name": "Hostelling International Boston",
            "notes": "",
            "zipcode": "02116",
            "longitude": -71.0634137,
            "latitude": 42.3511117,
            "contact_phone": "6175369455"
        }
    },
    {
        "pk": 47,
        "model": "retail.partner",
        "fields": {
            "website": "http://www.hubbicycle.com/",
            "offer": "10% of in-stock items if you mention and participate in Walk/Ride Day!",
            "phone": "6174412500",
            "street": "1064 Cambridge Street",
            "contact_email": "info@hubbicycle.com",
            "contact_name": "",
            "approved": true,
            "category": "Bikes",
            "city": "Cambridge",
            "name": "Hub Bicyle Company",
            "notes": "",
            "zipcode": "02139",
            "longitude": -71.0951373,
            "latitude": 42.372978,
            "contact_phone": ""
        }
    },
    {
        "pk": 48,
        "model": "retail.partner",
        "fields": {
            "website": "http://www.ibex.com/",
            "offer": "10% off on all non-sale items",
            "phone": "8572771932",
            "street": "303 Newbury Street",
            "contact_email": "lhill@ibex.com",
            "contact_name": "Liana Hill",
            "approved": true,
            "category": "Clothing and Equipment",
            "city": "Boston",
            "name": "Ibex Outdoor Clothing",
            "notes": "Contact title: at bike fridays\n",
            "zipcode": "02215",
            "longitude": -71.0881563,
            "latitude": 42.3481177,
            "contact_phone": ""
        }
    },
    {
        "pk": 49,
        "model": "retail.partner",
        "fields": {
            "website": "http://blog.innaskitchen.com",
            "offer": "One small coffee or tea.",
            "phone": "6172445345",
            "street": "19 Pelham Street",
            "contact_email": "nothing on web",
            "contact_name": "Alex",
            "approved": true,
            "category": "Food and Drink",
            "city": "Newton Centre",
            "name": "Inna's Kitchen",
            "notes": "",
            "zipcode": "02459",
            "longitude": -71.1953205,
            "latitude": 42.3311661,
            "contact_phone": ""
        }
    },
    {
        "pk": 50,
        "model": "retail.partner",
        "fields": {
            "website": "http://www.johnnyds.com",
            "offer": "$3 off cover charge!",
            "phone": "6177762004",
            "street": "17 Holland Street",
            "contact_email": "carla@johnnyds.com",
            "contact_name": "Carla",
            "approved": true,
            "category": "Other",
            "city": "Somerville",
            "name": "Johnny D's",
            "notes": "",
            "zipcode": "02144",
            "longitude": -71.1230025,
            "latitude": 42.3974052,
            "contact_phone": ""
        }
    },
    {
        "pk": 51,
        "model": "retail.partner",
        "fields": {
            "website": "http://www.kendall-press.com/",
            "offer": "A free note pad and pen for Walk/Ride Day customers.",
            "phone": "6173542584",
            "street": "One Main Streeet",
            "contact_email": "info@kendall-press.com",
            "contact_name": "Jacob",
            "approved": true,
            "category": "Office",
            "city": "Cambridge",
            "name": "Kendall Press",
            "notes": "",
            "zipcode": "02142",
            "longitude": -71.0799907,
            "latitude": 42.3621656,
            "contact_phone": ""
        }
    },
    {
        "pk": 52,
        "model": "retail.partner",
        "fields": {
            "website": "http://kickasscupcakes.com",
            "offer": "Buy one get one FREE cupcake on Walk/Ride Day!",
            "phone": "6176282877",
            "street": "199c Highland Avenue",
            "contact_email": "info@kickasscupcakes.com",
            "contact_name": "Sara",
            "approved": true,
            "category": "Food and Drink",
            "city": "Somerville",
            "name": "Kickass Cupcakes",
            "notes": "Last contact: 6/14/2014\nNotes: emailed her I changed address on RP list after they moved, didn't hear back",
            "zipcode": "02143",
            "longitude": -71.1067222,
            "latitude": 42.389759,
            "contact_phone": ""
        }
    },
    {
        "pk": 53,
        "model": "retail.partner",
        "fields": {
            "website": "http://laromacafe.com",
            "offer": "free small tea or coffee (expresso drinks excluded)",
            "phone": "6176300006",
            "street": "15A  Spencer Street",
            "contact_email": "westnewton@laromacafe.com",
            "contact_name": "",
            "approved": true,
            "category": "Food and Drink",
            "city": "West Newton",
            "name": "L'Aroma Cafe & Bakery",
            "notes": "",
            "zipcode": "02465",
            "longitude": -71.2258007,
            "latitude": 42.348592,
            "contact_phone": ""
        }
    },
    {
        "pk": 54,
        "model": "retail.partner",
        "fields": {
            "website": "http://LantanaCafe.com",
            "offer": "",
            "phone": "7813931930",
            "street": "417 Salem Street Haynes Square",
            "contact_email": "lantanacafe@gmail.com",
            "contact_name": "Ayman Noufal",
            "approved": true,
            "category": "Food and Drink",
            "city": "Medford",
            "name": "Lantana Cafe",
            "notes": "",
            "zipcode": "02152",
            "longitude": -70.9754842,
            "latitude": 42.3737714,
            "contact_phone": ""
        }
    },
    {
        "pk": 55,
        "model": "retail.partner",
        "fields": {
            "website": "http://www.lionssharecoaching.com/",
            "offer": "Two offers! 1) Call 781-670-7090, or email marie@lionssharecoaching.com on Walk/Ride Day and be entered to win a six week career coaching or performance coaching program.  2) Also receive 15% off coaching packages purchased on Walk/Ride Day. For both offers, you must go green on that Walk/Ride Day and commit to participating in at least two more.",
            "phone": "6178031508",
            "street": "11 Josephine Rd",
            "contact_email": "marie.wetmore@gmail.com",
            "contact_name": "Marie wetmore",
            "approved": true,
            "category": "Mind and Body",
            "city": "Medford",
            "name": "Lions Share Coaching",
            "notes": "",
            "zipcode": "02155",
            "longitude": -71.1427462,
            "latitude": 42.4347153,
            "contact_phone": ""
        }
    },
    {
        "pk": 56,
        "model": "retail.partner",
        "fields": {
            "website": "http://www.living-harmony.org",
            "offer": "20% off first personal or business organizing session.  Living Harmony works with people who want to get organized so they can focus on what\\u2019s important to them and live their purpose.  Living Harmony provides simple organizing strategies and teaches lasting solutions.",
            "phone": "6179450704",
            "street": "24 Harvey Street",
            "contact_email": "erika@living-harmony.org",
            "contact_name": "Erika Salloux",
            "approved": true,
            "category": "Mind and Body",
            "city": "Cambridge",
            "name": "Living Harmony, LLC",
            "notes": "",
            "zipcode": "02140",
            "longitude": -71.1311527,
            "latitude": 42.3971097,
            "contact_phone": ""
        }
    },
    {
        "pk": 57,
        "model": "retail.partner",
        "fields": {
            "website": "http://www.lorenzislandkuisine.com/",
            "offer": "10% off",
            "phone": "6175066061",
            "street": "657 Washington St",
            "contact_email": "can email through website",
            "contact_name": "",
            "approved": true,
            "category": "Food and Drink",
            "city": "Boston",
            "name": "Lorenz Island Kuisine",
            "notes": "",
            "zipcode": "02124",
            "longitude": -71.0712662,
            "latitude": 42.2888032,
            "contact_phone": ""
        }
    },
    {
        "pk": 58,
        "model": "retail.partner",
        "fields": {
            "website": "http://www.marios-salon.com/",
            "offer": "10% off any hair cut on Walk/Ride Days!",
            "phone": "6176668210",
            "street": "75 Holland Street                   Davis Square",
            "contact_email": "can email through website",
            "contact_name": "",
            "approved": true,
            "category": "Mind and Body",
            "city": "Somerville",
            "name": "Mario's Salon",
            "notes": "",
            "zipcode": "02144",
            "longitude": -71.1241762,
            "latitude": 42.3985724,
            "contact_phone": ""
        }
    },
    {
        "pk": 59,
        "model": "retail.partner",
        "fields": {
            "website": "http://www.medfordmusculartherapy.com/",
            "offer": "Add a 15-minute treatment of your choice to your massage session",
            "phone": "7813939893",
            "street": "65 Riverside Avenue",
            "contact_email": "msbuttoni@aol.com",
            "contact_name": "Mary Sbuttoni",
            "approved": true,
            "category": "Mind and Body",
            "city": "Medford",
            "name": "Medford Muscular Therapy Centre",
            "notes": "Last contact: 1/14 Change logo\n",
            "zipcode": "02155",
            "longitude": -71.107507,
            "latitude": 42.4175635,
            "contact_phone": ""
        }
    },
    {
        "pk": 60,
        "model": "retail.partner",
        "fields": {
            "website": "http://www.medfordoptical.com/",
            "offer": "$100 off any complete pair of prescription eyeware. This offer cannot be combined with any insurance or other discounts.",
            "phone": "7813918222",
            "street": "16 High Street                   United States",
            "contact_email": "info@medfordoptical.com",
            "contact_name": "Dana",
            "approved": true,
            "category": "Mind and Body",
            "city": "Medford",
            "name": "Medford Optical",
            "notes": "Last contact: 6/14/2014\nNotes: Trish visited and they said continue",
            "zipcode": "02155",
            "longitude": -71.1102915,
            "latitude": 42.4182848,
            "contact_phone": ""
        }
    },
    {
        "pk": 61,
        "model": "retail.partner",
        "fields": {
            "website": "http://www.mrcrepe.com/",
            "offer": "10% off your purchase on Walk/Ride Day!",
            "phone": "6176230661",
            "street": "51 Davis Square",
            "contact_email": "",
            "contact_name": "Leo Souza",
            "approved": true,
            "category": "Food and Drink",
            "city": "Somerville",
            "name": "Mr. Crepe",
            "notes": "",
            "zipcode": "02144",
            "longitude": -71.1230052,
            "latitude": 42.3967577,
            "contact_phone": ""
        }
    },
    {
        "pk": 62,
        "model": "retail.partner",
        "fields": {
            "website": "http://www.mudflat.org",
            "offer": "Get a coupon for 10% off on pottery purchases at Mudflat Gallery on Walk/Ride Days!",
            "phone": "6176280589",
            "street": "81 Broadway",
            "contact_email": "lynn@mudflat.org",
            "contact_name": "Lynn Gervens",
            "approved": true,
            "category": "Art",
            "city": "Somerville",
            "name": "Mudflat Studio",
            "notes": "",
            "zipcode": "02145",
            "longitude": -71.0819716,
            "latitude": 42.3874212,
            "contact_phone": ""
        }
    },
    {
        "pk": 63,
        "model": "retail.partner",
        "fields": {
            "website": "http://www.musicarts.com",
            "offer": "$5 off any purchase of $25 or more.",
            "phone": "6173323578",
            "street": "839 Beacon Street",
            "contact_email": "info@musicarts.com",
            "contact_name": "Nathan Roeder",
            "approved": true,
            "category": "Art",
            "city": "Newton Centre",
            "name": "Music & Arts",
            "notes": "",
            "zipcode": "02459",
            "longitude": -71.1955399,
            "latitude": 42.3301101,
            "contact_phone": ""
        }
    },
    {
        "pk": 64,
        "model": "retail.partner",
        "fields": {
            "website": "http://www.mysticcoffeeroaster.com",
            "offer": "Free small cup of coffee",
            "phone": "7813910042",
            "street": "30 Riverside Ave",
            "contact_email": "mysticcoffeeroaster@yahoo.com",
            "contact_name": "Sharon Hepburn",
            "approved": true,
            "category": "Food and Drink",
            "city": "Medford",
            "name": "Mystic Coffee Roaster",
            "notes": "Last contact: 6/14/2014\nNotes: Trish visited and they said continue",
            "zipcode": "02155",
            "longitude": -71.1087491,
            "latitude": 42.4181021,
            "contact_phone": ""
        }
    },
    {
        "pk": 65,
        "model": "retail.partner",
        "fields": {
            "website": "http://www.nancysfamilysalon.com",
            "offer": "10% off all services",
            "phone": "7812194644",
            "street": "429 Salem Street Haynes Square",
            "contact_email": "info@nancysfamilysalon.com",
            "contact_name": "Nancy Compobasso",
            "approved": true,
            "category": "Mind and Body",
            "city": "Medford",
            "name": "Nancy's Family Salon",
            "notes": "",
            "zipcode": "02155",
            "longitude": -71.1061639,
            "latitude": 42.4184296,
            "contact_phone": ""
        }
    },
    {
        "pk": 66,
        "model": "retail.partner",
        "fields": {
            "website": "http://www.liceinfo.net",
            "offer": "20% off our services throughout the month, if you mention your participation in the previous Walk/Ride Day",
            "phone": "6178169487",
            "street": "22 Notre Dame Ave.",
            "contact_email": "nitwitsinfo@gmail.com",
            "contact_name": "Berit Pratt",
            "approved": true,
            "category": "Other",
            "city": "N. Cambridge",
            "name": "NitWits Lice Removal",
            "notes": "Last contact: 7/1/2014\nNotes: Email to Ariana - change offer to 20%",
            "zipcode": "02140",
            "longitude": -71.131584,
            "latitude": 42.3916641,
            "contact_phone": ""
        }
    },
    {
        "pk": 67,
        "model": "retail.partner",
        "fields": {
            "website": "http://www.o2yoga.com",
            "offer": "Free yoga class on Walk/Ride Day.",
            "phone": "6176250267",
            "street": "288 Highland Ave",
            "contact_email": "elliott@o2yoga.com",
            "contact_name": "Elliot",
            "approved": true,
            "category": "Mind and Body",
            "city": "Somerville",
            "name": "O2 Yoga",
            "notes": "",
            "zipcode": "02144",
            "longitude": -71.1123377,
            "latitude": 42.3921017,
            "contact_phone": ""
        }
    },
    {
        "pk": 68,
        "model": "retail.partner",
        "fields": {
            "website": "http://www.o2yoga.com/",
            "offer": "Free yoga class for all celebrating the last Friday of the month",
            "phone": "6174910002",
            "street": "1001 Mass Ave.",
            "contact_email": "elliott@o2yoga.com",
            "contact_name": "Elliot",
            "approved": true,
            "category": "Mind and Body",
            "city": "Cambridge",
            "name": "O2 Yoga",
            "notes": "",
            "zipcode": "02139",
            "longitude": -71.1155951,
            "latitude": 42.3589304,
            "contact_phone": ""
        }
    },
    {
        "pk": 69,
        "model": "retail.partner",
        "fields": {
            "website": "",
            "offer": "adelestrauss@yahoo.com",
            "phone": "6177894141",
            "street": "56 Bennett Street",
            "contact_email": "orientalhealingarts@hotmail.com",
            "contact_name": "Adele",
            "approved": true,
            "category": "Mind and Body",
            "city": "Boston",
            "name": "Oriental Healing Arts, Adele H. Strauss M.Ac., Lic.Ac.",
            "notes": "",
            "zipcode": "02135",
            "longitude": -71.156032,
            "latitude": 42.351517,
            "contact_phone": ""
        }
    },
    {
        "pk": 70,
        "model": "retail.partner",
        "fields": {
            "website": "http://www.paramountbicycle.com/",
            "offer": "10% discount!",
            "phone": "6176666072",
            "street": "104 Bristol Road                   Ball Square",
            "contact_email": "tyler@paramountbicycle.com",
            "contact_name": "Tyler",
            "approved": true,
            "category": "Bikes",
            "city": "Somerville",
            "name": "Paramount Bicycle Repair",
            "notes": "",
            "zipcode": "02144",
            "longitude": -71.1240559,
            "latitude": 42.3991718,
            "contact_phone": ""
        }
    },
    {
        "pk": 71,
        "model": "retail.partner",
        "fields": {
            "website": "http://www.passimcenter.org",
            "offer": "50% discount on Passim membership (individual or family level) to Walk/Ride Day participants. To take advantage of the membership discount, call the Passim office at 617-492-5300, or write to info@passim.org and reference the \"Walk/Ride Day discount.\"",
            "phone": "6174925300",
            "street": "47 Palmer Street",
            "contact_email": "courtney@passim.org",
            "contact_name": "Courtney Gallagher",
            "approved": true,
            "category": "Other",
            "city": "Cambridge",
            "name": "Passim",
            "notes": "",
            "zipcode": "02138",
            "longitude": -71.1205395,
            "latitude": 42.3718854,
            "contact_phone": ""
        }
    },
    {
        "pk": 72,
        "model": "retail.partner",
        "fields": {
            "website": "",
            "offer": "Free can of soda with purchase of a club sandwich.",
            "phone": "7813959867",
            "street": "447 High Street                   West Medford Square",
            "contact_email": "bandj1725@hotmail.com",
            "contact_name": "Jim Wright",
            "approved": true,
            "category": "Food and Drink",
            "city": "Medford",
            "name": "Paul Revere Restaurant",
            "notes": "",
            "zipcode": "02155",
            "longitude": -71.131471,
            "latitude": 42.4210808,
            "contact_phone": ""
        }
    },
    {
        "pk": 73,
        "model": "retail.partner",
        "fields": {
            "website": "http://www.peets.com",
            "offer": "Free small coffee for Walk/Ride Day participants on the last Friday of each month!",
            "phone": "6174921844",
            "street": "100 Mount Auburn St",
            "contact_email": "jzazinski@peets.com, peets504@peets.com",
            "contact_name": "Cara",
            "approved": true,
            "category": "Food and Drink",
            "city": "Cambridge",
            "name": "Peet's Coffee & Tea",
            "notes": "Last contact: 8/1/2014\nNotes: called, got a new email from them",
            "zipcode": "02138",
            "longitude": -71.1206818,
            "latitude": 42.3726508,
            "contact_phone": ""
        }
    },
    {
        "pk": 74,
        "model": "retail.partner",
        "fields": {
            "website": "http://www.pembertonfarms.com/",
            "offer": "10% off all plants and gardening supplies",
            "phone": "8005517327",
            "street": "2225 Massachusetts Avenue",
            "contact_email": "trina@pembertonfarms.com",
            "contact_name": "Trina Lorigan",
            "approved": true,
            "category": "Other",
            "city": "Cambridge",
            "name": "Pemberton Farms and Garden Center",
            "notes": "Last contact: 1/24\nNotes: Continue.  Will sent prize for raffle",
            "zipcode": "02140",
            "longitude": -71.1257731,
            "latitude": 42.3938285,
            "contact_phone": "8005517327"
        }
    },
    {
        "pk": 75,
        "model": "retail.partner",
        "fields": {
            "website": "",
            "offer": "10% off for participating Walk/Ride Day customers.",
            "phone": "6173871388",
            "street": "72 Ferry St.",
            "contact_email": "",
            "contact_name": "",
            "approved": true,
            "category": "Mind and Body",
            "city": "Everett",
            "name": "Perfection Hair Salon",
            "notes": "",
            "zipcode": "02149",
            "longitude": -71.0470929,
            "latitude": 42.4065044,
            "contact_phone": ""
        }
    },
    {
        "pk": 76,
        "model": "retail.partner",
        "fields": {
            "website": "http://Petsipies.com",
            "offer": "10% off any purchase for all Walk/Ride Day participants! New bike racks, too!",
            "phone": "6176617437",
            "street": "285 Beacon Street",
            "contact_email": "jackie@petsipies.com",
            "contact_name": "Jackie Bowers",
            "approved": true,
            "category": "Food and Drink",
            "city": "Somerville",
            "name": "Petsi Pies",
            "notes": "Last contact: 8/1\nNotes: signed up via web site. Said they would provide a raffle prize of a pie a season, didn't hear back from email asking about it.  Donates food for events.",
            "zipcode": "02143",
            "longitude": -71.1126817,
            "latitude": 42.3836137,
            "contact_phone": "6178680004"
        }
    },
    {
        "pk": 77,
        "model": "retail.partner",
        "fields": {
            "website": "http://petsipies.com/",
            "offer": "10% off any purchase for all Walk/Ride Day participants",
            "phone": "6174990801",
            "street": "31 Putnam Avenue",
            "contact_email": "paul@petsipies.com",
            "contact_name": "Paul Clark X - Shifra",
            "approved": true,
            "category": "Food and Drink",
            "city": "Cambridge",
            "name": "Petsi Pies",
            "notes": "Contact title: 0\nLast contact: 8/1/2014\nNotes: called, got a new contact (Jackie, manager) and spoke with them about wallet cards",
            "zipcode": "02139",
            "longitude": -71.1137,
            "latitude": 42.3689604,
            "contact_phone": ""
        }
    },
    {
        "pk": 78,
        "model": "retail.partner",
        "fields": {
            "website": "http://www.potbelly.com/Shops/ShopLocator.aspx?PotbellyShopId=310",
            "offer": "Free Piece of Fruit or Oatmeal Chocolate Chip Cookie on Walk/ Ride Day!",
            "phone": "6179362285",
            "street": "1 Porter Square",
            "contact_email": "brandi.preston@potbelly.com",
            "contact_name": "Brandi Preston",
            "approved": true,
            "category": "Food and Drink",
            "city": "Cambridge",
            "name": "Potbelly Sandwich Shop",
            "notes": "",
            "zipcode": "02140",
            "longitude": -71.1199644,
            "latitude": 42.3892041,
            "contact_phone": ""
        }
    },
    {
        "pk": 79,
        "model": "retail.partner",
        "fields": {
            "website": "http://redbones.com/",
            "offer": "10% off!",
            "phone": "6176282200",
            "street": "55 Chester St.",
            "contact_email": "mail@redbones.com",
            "contact_name": "Rob",
            "approved": true,
            "category": "Food and Drink",
            "city": "Somerville",
            "name": "Redbones",
            "notes": "",
            "zipcode": "02144",
            "longitude": -71.1223704,
            "latitude": 42.3952317,
            "contact_phone": ""
        }
    },
    {
        "pk": 80,
        "model": "retail.partner",
        "fields": {
            "website": "http://www.rei.com/stores/80",
            "offer": "Free bicycle water bottle to Walk/Ride Day participants who check in at customer service counter on Walk/Ride Day. Available to first 50 people.",
            "phone": "6172360746",
            "street": "401 Park Drive",
            "contact_email": "rlavoie@rei.com",
            "contact_name": "Rita Lavoie",
            "approved": true,
            "category": "Clothing and Equipment",
            "city": "Boston",
            "name": "REI",
            "notes": "",
            "zipcode": "02215",
            "longitude": -71.1029023,
            "latitude": 42.3444979,
            "contact_phone": "5082706325"
        }
    },
    {
        "pk": 81,
        "model": "retail.partner",
        "fields": {
            "website": "http://flatbreadcompany.com/FlatbreadSacco2010.html",
            "offer": "15% off lanes",
            "phone": "6177760552",
            "street": "45 Day Street",
            "contact_email": "evanfetras@flatbreadcompany.com",
            "contact_name": "Evan Fetras",
            "approved": true,
            "category": "Food and Drink",
            "city": "Somerville",
            "name": "Sacco's Bowl Haven",
            "notes": "Contact title: Manager\n",
            "zipcode": "02144",
            "longitude": -71.123821,
            "latitude": 42.395746,
            "contact_phone": ""
        }
    },
    {
        "pk": 82,
        "model": "retail.partner",
        "fields": {
            "website": "http://www.salsdrycleaners.com",
            "offer": "20% discount on all services excluding wedding gowns.",
            "phone": "6173871792",
            "street": "357 Broadway",
            "contact_email": "salscleaners357@yahoo.com",
            "contact_name": "Debbie & Steve",
            "approved": true,
            "category": "Other",
            "city": "Everett",
            "name": "Sal's Custom Dry Cleaning",
            "notes": "",
            "zipcode": "02149",
            "longitude": -71.057469,
            "latitude": 42.404617,
            "contact_phone": ""
        }
    },
    {
        "pk": 83,
        "model": "retail.partner",
        "fields": {
            "website": "http://www.sidekimfoods.com/",
            "offer": "15% off catering",
            "phone": "7815753663",
            "street": "82 Sanderson Ave",
            "contact_email": "pmikedis@sidekimfoods.com",
            "contact_name": "Peter Mikedis",
            "approved": true,
            "category": "Food and Drink",
            "city": "Lynn",
            "name": "Sidekim Foods",
            "notes": "",
            "zipcode": "01901",
            "longitude": -70.9282338,
            "latitude": 42.4700736,
            "contact_phone": ""
        }
    },
    {
        "pk": 84,
        "model": "retail.partner",
        "fields": {
            "website": "http://www.runningemporium.com/",
            "offer": "10% off when you participate in Walk/Ride Days!",
            "phone": "6174647273",
            "street": "653 East Broadway",
            "contact_email": "billyh@runningemporium.com",
            "contact_name": "Billy Hartford",
            "approved": true,
            "category": "Mind and Body",
            "city": "South Boston",
            "name": "South Boston Running Emporium",
            "notes": "Contact title: Owner\n",
            "zipcode": "02127",
            "longitude": -71.0385419,
            "latitude": 42.3354322,
            "contact_phone": ""
        }
    },
    {
        "pk": 85,
        "model": "retail.partner",
        "fields": {
            "website": "http://stinkyskittens-doggiestoo.com",
            "offer": "Get $3.00 off nail trim services for your cat or dog on Walk/Ride Day. Woof!",
            "phone": "6176230265",
            "street": "110 Bristol Road",
            "contact_email": "stinkysgrooming@msn.com",
            "contact_name": "Jo-Ann Keith",
            "approved": true,
            "category": "Other",
            "city": "Somerville",
            "name": "Stinky's Kittens and Doggies Too",
            "notes": "",
            "zipcode": "02144",
            "longitude": -71.1127769,
            "latitude": 42.4002779,
            "contact_phone": ""
        }
    },
    {
        "pk": 86,
        "model": "retail.partner",
        "fields": {
            "website": "http://stitchhousedorchester.com/",
            "offer": "Get a free Stitch House measuring tape when you participate in Walk/Ride Days!",
            "phone": "6172658013",
            "street": "846 Dorchester Ave",
            "contact_email": "info@stitchhousedorchester.com",
            "contact_name": "Annissa",
            "approved": true,
            "category": "Art",
            "city": "Boston",
            "name": "Stitch House",
            "notes": "",
            "zipcode": "02125",
            "longitude": -71.0566626,
            "latitude": 42.3218786,
            "contact_phone": ""
        }
    },
    {
        "pk": 87,
        "model": "retail.partner",
        "fields": {
            "website": "http://www.sunshinelucys.com",
            "offer": "Get 5% all accessory items except pictures and frames on Walk/Ride Day.",
            "phone": "6177762011",
            "street": "93 Holland Street",
            "contact_email": "EddieLuInc@gmail.com",
            "contact_name": "",
            "approved": true,
            "category": "Clothing and Equipment",
            "city": "Somerville",
            "name": "Sunshine Lucy's",
            "notes": "",
            "zipcode": "02144",
            "longitude": -71.1243974,
            "latitude": 42.3991182,
            "contact_phone": ""
        }
    },
    {
        "pk": 88,
        "model": "retail.partner",
        "fields": {
            "website": "http://tazachocolate.com",
            "offer": "10% off on Walk/Ride Day when you wear green and go green!",
            "phone": "6172842232",
            "street": "561 Windsor Street",
            "contact_email": "suhayl@tazachocolate.com",
            "contact_name": "Suhayl Ramirez",
            "approved": true,
            "category": "Food and Drink",
            "city": "Somerville",
            "name": "Taza Chocolate Factory Store",
            "notes": "Contact title: Events Manager\nLast contact: 1/14\nNotes: Continue, provided raffle prizes and chocolate for events",
            "zipcode": "02143",
            "longitude": -71.093237,
            "latitude": 42.375619,
            "contact_phone": "617623080431"
        }
    },
    {
        "pk": 89,
        "model": "retail.partner",
        "fields": {
            "website": "http://www.terreneofne.com",
            "offer": "10% off paint order",
            "phone": "6172446200",
            "street": "275D Centre Street                   United States",
            "contact_email": "maryellen@terreneofne.com",
            "contact_name": "Maryellen DiSchino",
            "approved": true,
            "category": "Other",
            "city": "Newton",
            "name": "Terrene of New England",
            "notes": "",
            "zipcode": "02458",
            "longitude": -71.1852956,
            "latitude": 42.3585501,
            "contact_phone": ""
        }
    },
    {
        "pk": 90,
        "model": "retail.partner",
        "fields": {
            "website": "http://www.bookshopsomerville.com",
            "offer": "10% off entire purchase on Walk/Ride Days!",
            "phone": "6177641624",
            "street": "694 Broadway",
            "contact_email": "thebookshop@yahoo.com",
            "contact_name": "Melissa & Doug",
            "approved": true,
            "category": "Office",
            "city": "Somerville",
            "name": "The Book Shop",
            "notes": "",
            "zipcode": "02145",
            "longitude": -71.1119527,
            "latitude": 42.3997302,
            "contact_phone": ""
        }
    },
    {
        "pk": 91,
        "model": "retail.partner",
        "fields": {
            "website": "http://www.watchshopatpsquare.com",
            "offer": "20% off a new watch, all month!",
            "phone": "6174918173",
            "street": "1925-B Massachusetts Avenue",
            "contact_email": "sam@watchshopatpsquare.com",
            "contact_name": "Sam",
            "approved": true,
            "category": "Clothing and Equipment",
            "city": "Cambridge",
            "name": "The Watch Shop at Porter Square",
            "notes": "",
            "zipcode": "02140",
            "longitude": -71.1196692,
            "latitude": 42.3894432,
            "contact_phone": ""
        }
    },
    {
        "pk": 92,
        "model": "retail.partner",
        "fields": {
            "website": "http://www.tosci.com/",
            "offer": "Free 1/2 small scoop of ice cream",
            "phone": "6174915877",
            "street": "899 Main Street",
            "contact_email": "Mimi@tosci.com",
            "contact_name": "Mimi Rancatore",
            "approved": true,
            "category": "Food and Drink",
            "city": "Cambridge",
            "name": "Toscanini's",
            "notes": "",
            "zipcode": "02139",
            "longitude": -71.0995516,
            "latitude": 42.3634384,
            "contact_phone": ""
        }
    },
    {
        "pk": 93,
        "model": "retail.partner",
        "fields": {
            "website": "http://www.totalperformancesports.com",
            "offer": "Free 7-day pass for all who participate and come in on Walk/Ride Day!",
            "phone": "6173875998",
            "street": "68 Vine Street",
            "contact_email": "info@totalperformancesports.com",
            "contact_name": "CJ",
            "approved": true,
            "category": "Mind and Body",
            "city": "Everett",
            "name": "Total Performance Sports",
            "notes": "",
            "zipcode": "02149",
            "longitude": -71.0482959,
            "latitude": 42.401932,
            "contact_phone": ""
        }
    },
    {
        "pk": 94,
        "model": "retail.partner",
        "fields": {
            "website": "http://www.truegrounds.com/",
            "offer": "Free small coffee with any purchase!",
            "phone": "6175919559",
            "street": "717 Broadway",
            "contact_email": "amy@truegrounds.com",
            "contact_name": "Amy Thibeault",
            "approved": true,
            "category": "Food and Drink",
            "city": "Somerville",
            "name": "True Grounds",
            "notes": "",
            "zipcode": "02144",
            "longitude": -71.1124991,
            "latitude": 42.4001358,
            "contact_phone": ""
        }
    },
    {
        "pk": 95,
        "model": "retail.partner",
        "fields": {
            "website": "http://Universitystationery.com",
            "offer": "Half-price on green pens on Walk/Ride Day!",
            "phone": "6175476650",
            "street": "311 Massachusetts Avenue",
            "contact_email": "gailseid@comcast.net",
            "contact_name": "Gail Seidman",
            "approved": true,
            "category": "Office",
            "city": "Cambridge",
            "name": "University Stationery",
            "notes": "",
            "zipcode": "02139",
            "longitude": -71.0983149,
            "latitude": 42.3625063,
            "contact_phone": ""
        }
    },
    {
        "pk": 96,
        "model": "retail.partner",
        "fields": {
            "website": "http://www.urbanadventours.com/about-us",
            "offer": "$10 off bicycle tours or rentals for folks that reserve in advance, arrive in a green way and mention Green Streets Initiative.  10% off a tune up and everything in our retail shop.  Call 617-670-0637 to make a reservation.",
            "phone": "6176700637",
            "street": "103 Atlantic Avenue",
            "contact_email": "ride@urbanadventours.com",
            "contact_name": "Natalie Brady",
            "approved": true,
            "category": "Bikes",
            "city": "Boston",
            "name": "Urban AdvenTours",
            "notes": "Last contact: 2/14\nNotes: Provided rental gift certs for raffle",
            "zipcode": "02110",
            "longitude": -71.0524414,
            "latitude": 42.3616091,
            "contact_phone": "6176700637"
        }
    },
    {
        "pk": 97,
        "model": "retail.partner",
        "fields": {
            "website": "http://www.veggieplanet.net/index.html",
            "offer": "Raffle off a gift certificate for lunch/dinner for two!",
            "phone": "6176611531",
            "street": "47 Palmer Street",
            "contact_email": "ajpenn12@yahoo.com",
            "contact_name": "Adam Penn",
            "approved": true,
            "category": "Food and Drink",
            "city": "Cambridge",
            "name": "Veggie Planet",
            "notes": "Last contact: 7/30/2014\nNotes: going out of business on August 17",
            "zipcode": "02138",
            "longitude": -71.1205395,
            "latitude": 42.3718854,
            "contact_phone": ""
        }
    },
    {
        "pk": 98,
        "model": "retail.partner",
        "fields": {
            "website": "http://viridian.com/davcoh",
            "offer": "10% off first month's variable electric rate.",
            "phone": "6172445316",
            "street": "831 Beacon St., Suite 189",
            "contact_email": "david@davcoh.com",
            "contact_name": "David Cohen",
            "approved": true,
            "category": "Other",
            "city": "Newton",
            "name": "Viridian Energy",
            "notes": "",
            "zipcode": "02459",
            "longitude": -71.1954181,
            "latitude": 42.3300902,
            "contact_phone": "6172445316"
        }
    },
    {
        "pk": 99,
        "model": "retail.partner",
        "fields": {
            "website": "http://www.wardsgiftshop.com/",
            "offer": "15% off purchases (can not combine with other discounts or promotions)",
            "phone": "7813954099",
            "street": "44 High Street",
            "contact_email": "gifts9000@aol.com",
            "contact_name": "",
            "approved": true,
            "category": "Gifts",
            "city": "Medford",
            "name": "Ward's Gifts",
            "notes": "",
            "zipcode": "02155",
            "longitude": -71.1110661,
            "latitude": 42.4185173,
            "contact_phone": ""
        }
    },
    {
        "pk": 100,
        "model": "retail.partner",
        "fields": {
            "website": "http://www.weisswomanproductions.com",
            "offer": "Receive 10% off Video Services when you participate in Walk/Ride Day!",
            "phone": "6175019598",
            "street": "112 Belmont St. #2",
            "contact_email": "lynn@weisswomanproductions.com",
            "contact_name": "Lynn Weissman",
            "approved": true,
            "category": "Other",
            "city": "Somerville",
            "name": "Weisswoman Productions",
            "notes": "",
            "zipcode": "02143",
            "longitude": -71.1078414,
            "latitude": 42.3894803,
            "contact_phone": "7187767769"
        }
    },
    {
        "pk": 101,
        "model": "retail.partner",
        "fields": {
            "website": "http://www.wholefoods.com/stores/somerville",
            "offer": "Breakfast for all Walk/Ride Day participants! Weather permitting, find us right outside, if not, we will set up in the caf\\xe9 seating area. Offer available between 8am and 9am on the Friday of Walk/Ride Day weeks only.\\r\\nJune 27th Breakfast: Blueberry mini muffins, bananas, Naked Juices, iced coffee, and instant oatmeal with toppings to go!",
            "phone": "6179029300",
            "street": "45 Beacon Street",
            "contact_email": "jessica.haggerty@wholefoods.com",
            "contact_name": "Jessi Haggerty",
            "approved": true,
            "category": "Other",
            "city": "Somerville",
            "name": "Whole Foods Market Somerville",
            "notes": "",
            "zipcode": "02143",
            "longitude": -71.1030766,
            "latitude": 42.3760047,
            "contact_phone": "6179029300"
        }
    },
    {
        "pk": 102,
        "model": "retail.partner",
        "fields": {
            "website": "http://www.xtremeninja.com/",
            "offer": "Raffle entry for a month of free lessons.",
            "phone": "7813957131",
            "street": "45 Riverside Avenue",
            "contact_email": "xtremeninja1@yahoo.com",
            "contact_name": "",
            "approved": true,
            "category": "Mind and Body",
            "city": "Medford",
            "name": "Xtreme Ninja Martial Arts Center",
            "notes": "",
            "zipcode": "02155",
            "longitude": -71.1073209,
            "latitude": 42.4175106,
            "contact_phone": ""
        }
    },
    {
        "pk": 103,
        "model": "retail.partner",
        "fields": {
            "website": "http://www.zipcar.com/greenstreets",
            "offer": "When you donate money to Green Streets, Zipcar will reimburse you by giving you that very same amount of Zipcar dollars in your Zipcar tank! So, if you donate $100 to Green Streets, Zipcar will give you a $100 credit (up to $100/year). It's a great offer for new or current members! All Walk/Ride Day participants can also join Zipcar for $25 and get $25 off each year's annual membership! Participants just need to visit www.zipcar.com/greenstreets",
            "phone": "6179335070",
            "street": "2 Liberty Square",
            "contact_email": "adorsey@zipcar.com",
            "contact_name": "Ana Dorsey",
            "approved": true,
            "category": "Other",
            "city": "Boston",
            "name": "Zipcar",
            "notes": "Last contact: 1/14\nNotes: Continue, delete Camb, sent 6 $75 gift certs for raffle, can ask for more 6/14, see donation offers",
            "zipcode": "02109",
            "longitude": -71.0555996,
            "latitude": 42.3578356,
            "contact_phone": "6179335072"
        }
    },
    {
        "pk": 104,
        "model": "retail.partner",
        "fields": {
            "website": "http://www.zoescambridge.com",
            "offer": "Free dessert with purchase of a meal to all green travelers on Walk/Ride Days!",
            "phone": "6174950055",
            "street": "1105 Massachusetts Avenue",
            "contact_email": "t.vallas@comcast.net",
            "contact_name": "Theophilos Vallas",
            "approved": true,
            "category": "Food and Drink",
            "city": "Cambridge",
            "name": "Zoe's Restaurant",
            "notes": "",
            "zipcode": "02138",
            "longitude": -71.1133748,
            "latitude": 42.3707933,
            "contact_phone": "6174950055"
        }
    }
]